ING,2140,11751.000,01000000,fac1,14392;SOL_COMPUTED,NARROW_INT,-1224035.6730,5013208.4648,3738395.5559,0.0076,0.0170,0.0086,SOL_COMPUTED,NARROW_INT,0.0003,-0.0075,-0.0043,0.0097,0.0198,0.0110,"0",0.250,1.000,0.000,22,22,22,19,0,21,70,33*ad25d78b
$GPGSA,M,3,32,01,20,23,10,31,,,,,,,1.3,0.7,1.0*3A
#BESTPOSA,COM1,0,37.0,FINESTEERING,2140,11752.000,01000000,b1f6,14392;SOL_COMPUTED,NARROW_INT,36.10362270863,103.72100409417,1583.9568,-43.1000,WGS84,0.0065,0.0088,0.0172,"0",1.000,0.000,22,22,22,19,00,21,70,33*1619a4af
#BESTXYZA,COM1,0,37.0,FINESTEERING,2140,11752.000,01000000,fac1,14392;SOL_COMPUTED,NARROW_INT,-1224035.6758,5013208.4764,3738395.5598,0.0076,0.0169,0.0085,SOL_COMPUTED,NARROW_INT,0.0022,0.0058,-0.0004,0.0096,0.0194,0.0108,"0",0.250,1.000,0.000,22,22,22,19,0,21,70,33*9ee2dae1
$GPGSA,M,3,32,01,20,23,10,31,,,,,,,1.3,0.7,1.0*3A
#BESTPOSA,COM1,0,37.0,FINESTEERING,2140,11753.000,01000000,b1f6,14392;SOL_COMPUTED,NARROW_INT,36.10362273656,103.72100406743,1583.9507,-43.1000,WGS84,0.0067,0.0092,0.0178,"0",1.000,0.000,22,22,22,19,00,21,70,33*3a7558fa
#BESTXYZA,COM1,0,37.0,FINESTEERING,2140,11753.000,01000000,fac1,14392;SOL_COMPUTED,NARROW_INT,-1224035.6719,5013208.4704,3738395.5587,0.0079,0.0174,0.0090,SOL_COMPUTED,NARROW_INT,0.0045,0.0046,0.0013,0.0105,0.0212,0.0122,"0",0.250,1.000,0.000,22,22,22,19,0,21,70,33*a0b82459
$GPGSA,M,3,32,01,20,23,10,31,,,,,,,1.3,0.7,1.0*3A
#BESTPOSA,COM1,0,40.0,FINESTEERING,2140,11754.000,01000000,b1f6,14392;SOL_COMPUTED,NARROW_INT,36.10362273918,103.72100410765,1583.9527,-43.1000,WGS84,0.0068,0.0093,0.0179,"0",1.000,0.000,22,22,22,19,00,21,70,33*620461a7
#BESTXYZA,COM1,0,40.0,FINESTEERING,2140,11754.000,01000000,fac1,14392;SOL_COMPUTED,NARROW_INT,-1224035.6758,5013208.4710,3738395.5601,0.0080,0.0176,0.0090,SOL_COMPUTED,NARROW_INT,-0.0012,0.0070,0.0043,0.0108,0.0217,0.0124,"0",0.250,1.000,0.000,22,22,22,19,0,21,70,33*9793956f
$GPGSA,M,3,32,01,20,23,10,31,,,,,,,1.3,0.7,1.0*3A
#BESTPOSA,COM1,0,40.0,FINESTEERING,2140,11755.000,01000000,b1f6,14392;SOL_COMPUTED,NARROW_INT,36.10362273741,103.72100409496,1583.9532,-43.1000,WGS84,0.0067,0.0093,0.0179,"0",1.000,0.000,22,22,22,19,00,21,70,33*046168f9
#BESTXYZA,COM1,0,40.0,FINESTEERING,2140,11755.000,01000000,fac1,14392;SOL_COMPUTED,NARROW_INT,-1224035.6748,5013208.4717,3738395.5602,0.0080,0.0175,0.0090,SOL_COMPUTED,NARROW_INT,-0.0026,-0.0003,0.0006,0.0107,0.0216,0.0123,"0",0.250,1.000,0.000,22,22,22,19,0,21,70,33*e62df6a9
$GPGSA,M,3,32,01,20,23,10,31,,,,,,,1.3,0.7,1.0*3A
#BESTPOSA,COM1,0,39.0,FINESTEERING,2140,11756.000,01000000,b1f6,14392;SOL_COMPUTED,NARROW_INT,36.10362272932,103.72100407235,1583.9531,-43.1000,WGS84,0.0067,0.0091,0.0177,"0",1.000,0.000,22,22,22,19,00,21,70,33*0d9fb70c
#BESTXYZA,COM1,0,39.0,FINESTEERING,2140,11756.000,01000000,fac1,14392;SOL_COMPUTED,NARROW_INT,-1224035.6729,5013208.4727,3738395.5595,0.0078,0.0174,0.0088,SOL_COMPUTED,NARROW_INT,0.0044,0.0015,0.0008,0.0102,0.0210,0.0118,"0",0.250,1.000,0.000,22,22,22,19,0,21,70,33*c9a69092
$GPGSA,M,3,32,01,20,23,10,31,,,,,,,1.3,0.7,1.0*3A
#BESTPOSA,COM1,0,39.0,FINESTEERING,2140,11757.000,01000000,b1f6,14392;SOL_COMPUTED,NARROW_INT,36.10362271247,103.72100408361,1583.9586,-43.1000,WGS84,0.0066,0.0089,0.0174,"0",1.000,0.000,22,22,22,19,00,21,70,33*952f32c1
#BESTXYZA,COM1,0,39.0,FINESTEERING,2140,11757.000,01000000,fac1,14392;SOL_COMPUTED,NARROW_INT,-1224035.6752,5013208.4778,3738395.5612,0.0077,0.0171,0.0086,SOL_COMPUTED,NARROW_INT,-0.0011,-0.0005,0.0010,0.0098,0.0201,0.0112,"0",0.250,1.000,0.000,22,22,22,19,0,21,70,33*0f10beba
$GPGSA,M,3,32,20,23,10,31,,,,,,,,1.4,0.7,1.1*3D
#BESTPOSA,COM1,0,34.0,FINESTEERING,2140,11758.000,01000000,b1f6,14392;SOL_COMPUTED,NARROW_INT,36.10362273325,103.72100409861,1583.9512,-43.1000,WGS84,0.0065,0.0089,0.0173,"0",1.000,0.000,22,22,22,19,00,21,70,33*3af37ef9
#BESTXYZA,COM1,0,34.0,FINESTEERING,2140,11758.000,01000000,fac1,14392;SOL_COMPUTED,NARROW_INT,-1224035.6748,5013208.4704,3738395.5587,0.0077,0.0170,0.0086,SOL_COMPUTED,NARROW_INT,-0.0048,-0.0023,0.0007,0.0098,0.0198,0.0110,"0",0.250,1.000,0.000,22,22,22,19,0,21,70,33*99dc8882
$GPGSA,M,3,32,20,23,10,31,,,,,,,,1.4,0.7,1.1*3D
#BESTPOSA,COM1,0,34.0,FINESTEERING,2140,11759.000,01000000,b1f6,14392;SOL_COMPUTED,NARROW_INT,36.10362270232,103.72100402358,1583.9575,-43.1000,WGS84,0.0066,0.0090,0.0173,"0",1.000,0.000,22,22,22,19,00,21,70,33*4cc2b710
#BESTXYZA,COM1,0,34.0,FINESTEERING,2140,11759.000,01000000,fac1,14392;SOL_COMPUTED,NARROW_INT,-1224035.6699,5013208.4789,3738395.5597,0.0077,0.0170,0.0085,SOL_COMPUTED,NARROW_INT,0.0056,0.0143,0.0055,0.0100,0.0198,0.0109,"0",0.250,1.000,0.000,22,22,22,19,0,21,70,33*8e8dd52a
$GPGSA,M,3,32,20,23,10,31,,,,,,,,1.4,0.7,1.1*3D
#BESTPOSA,COM1,0,40.0,FINESTEERING,2140,11760.000,01000000,b1f6,14392;SOL_COMPUTED,NARROW_INT,36.10362273420,103.72100408086,1583.9490,-43.1000,WGS84,0.0065,0.0088,0.0171,"0",1.000,0.000,22,22,22,19,00,21,70,33*7b2ad47d
#BESTXYZA,COM1,0,40.0,FINESTEERING,2140,11760.000,01000000,fac1,14392;SOL_COMPUTED,NARROW_INT,-1224035.6728,5013208.4689,3738395.5575,0.0076,0.0168,0.0084,SOL_COMPUTED,NARROW_INT,-0.0010,-0.0064,-0.0035,0.0096,0.0192,0.0105,"0",0.250,1.000,0.000,22,22,22,19,0,21,70,33*e4354e33
$GPGSA,M,3,32,20,23,10,31,,,,,,,,1.4,0.7,1.1*3D
#BESTPOSA,COM1,0,40.0,FINESTEERING,2140,11761.000,01000000,b1f6,14392;SOL_COMPUTED,NARROW_INT,36.10362274187,103.72100407095,1583.9515,-43.1000,WGS84,0.0066,0.0093,0.0177,"0",1.000,0.000,22,22,22,19,00,21,70,33*7ce66fd0
#BESTXYZA,COM1,0,40.0,FINESTEERING,2140,11761.000,01000000,fac1,14392;SOL_COMPUTED,NARROW_INT,-1224035.6723,5013208.4707,3738395.5597,0.0080,0.0173,0.0089,SOL_COMPUTED,NARROW_INT,-0.0000,-0.0041,-0.0007,0.0106,0.0209,0.0120,"0",0.250,1.000,0.000,22,22,22,19,0,21,70,33*498c299e
$GPGSA,M,3,32,20,23,10,31,,,,,,,,1.4,0.7,1.1*3D
#BESTPOSA,COM1,0,39.5,FINESTEERING,2140,11762.000,01000000,b1f6,14392;SOL_COMPUTED,NARROW_INT,36.10362272179,103.72100405275,1583.9551,-43.1000,WGS84,0.0066,0.0093,0.0176,"0",1.000,0.000,22,22,22,19,00,21,70,33*5da61748
#BESTXYZA,COM1,0,39.5,FINESTEERING,2140,11762.000,01000000,fac1,14392;SOL_COMPUTED,NARROW_INT,-1224035.6717,5013208.4752,3738395.5600,0.0079,0.0173,0.0088,SOL_COMPUTED,NARROW_INT,0.0022,0.0004,-0.0004,0.0105,0.0207,0.0118,"0",0.250,1.000,0.000,22,22,22,19,0,21,70,33*94838bb4
$GPGSA,M,3,32,20,23,10,31,,,,,,,,1.4,0.7,1.1*3D
#BESTPOSA,COM1,0,39.5,FINESTEERING,2140,11763.000,01000000,b1f6,14392;SOL_COMPUTED,NARROW_INT,36.10362272459,103.72100404966,1583.9525,-43.1000,WGS84,0.0065,0.0090,0.0173,"0",1.000,0.000,22,22,22,19,00,21,70,33*290593d8
#BESTXYZA,COM1,0,39.5,FINESTEERING,2140,11763.000,01000000,fac1,14392;SOL_COMPUTED,NARROW_INT,-1224035.6709,5013208.4730,3738395.5587,0.0077,0.0170,0.0086,SOL_COMPUTED,NARROW_INT,0.0032,-0.0005,-0.0032,0.0099,0.0197,0.0110,"0",0.250,1.000,0.000,22,22,22,19,0,21,70,33*888657c3
$GPGSA,M,3,32,20,23,10,31,,,,,,,,1.4,0.7,1.1*3D
#BESTPOSA,COM1,0,39.0,FINESTEERING,2140,11764.000,01000000,b1f6,14392;SOL_COMPUTED,NARROW_INT,36.10362271211,103.72100404855,1583.9588,-43.1000,WGS84,0.0064,0.0089,0.0170,"0",1.000,0.000,22,22,22,19,00,21,70,33*10175b29
#BESTXYZA,COM1,0,39.0,FINESTEERING,2140,11764.000,01000000,fac1,14392;SOL_COMPUTED,NARROW_INT,-1224035.6722,5013208.4787,3738395.5613,0.0076,0.0168,0.0084,SOL_COMPUTED,NARROW_INT,-0.0020,0.0113,0.0052,0.0096,0.0190,0.0105,"0",0.250,1.000,0.000,22,22,22,19,0,21,70,33*6e61f480
$GPGSA,M,3,32,20,23,10,31,,,,,,,,1.4,0.7,1.1*3D
#BESTPOSA,COM1,0,37.0,FINESTEERING,2140,11765.000,01000000,b1f6,14392;SOL_COMPUTED,NARROW_INT,36.10362275086,103.72100409685,1583.9471,-43.1000,WGS84,0.0064,0.0088,0.0170,"0",1.000,0.000,22,22,22,19,00,21,70,33*12db5a91
#BESTXYZA,COM1,0,37.0,FINESTEERING,2140,11765.000,01000000,fac1,14392;SOL_COMPUTED,NARROW_INT,-1224035.6736,5013208.4661,3738395.5579,0.0076,0.0167,0.0084,SOL_COMPUTED,NARROW_INT,-0.0001,-0.0070,0.0005,0.0095,0.0188,0.0103,"0",0.250,1.000,0.000,22,22,22,19,0,21,70,33*7aceef57
$GPGSA,M,3,32,20,23,10,31,,,,,,,,1.4,0.7,1.1*3D
#BESTPOSA,COM1,0,37.0,FINESTEERING,2140,11766.000,01000000,b1f6,14392;SOL_COMPUTED,NARROW_INT,36.10362271184,103.72100406580,1583.9528,-43.1000,WGS84,0.0064,0.0088,0.0170,"0",1.000,0.000,22,22,22,19,00,21,70,33*5148a584
#BESTXYZA,COM1,0,37.0,FINESTEERING,2140,11766.000,01000000,fac1,14392;SOL_COMPUTED,NARROW_INT,-1224035.6725,5013208.4737,3738395.5577,0.0076,0.0168,0.0083,SOL_COMPUTED,NARROW_INT,0.0024,0.0051,-0.0006,0.0095,0.0189,0.0103,"0",0.250,1.000,0.000,22,22,22,19,0,21,70,33*d569a8c9
$GPGSA,M,3,32,20,23,10,31,,,,,,,,1.4,0.7,1.1*3D
#BESTPOSA,COM1,0,39.5,FINESTEERING,2140,11767.000,01000000,b1f6,14392;SOL_COMPUTED,NARROW_INT,36.10362271023,103.72100405045,1583.9588,-43.1000,WGS84,0.0064,0.0087,0.0170,"0",1.000,0.000,22,22,22,19,00,21,70,33*bc1a03bb
#BESTXYZA,COM1,0,39.5,FINESTEERING,2140,11767.000,01000000,fac1,14392;SOL_COMPUTED,NARROW_INT,-1224035.6724,5013208.4788,3738395.5611,0.0076,0.0168,0.0083,SOL_COMPUTED,NARROW_INT,0.0009,0.0051,0.0019,0.0094,0.0189,0.0102,"0",0.250,1.000,0.000,22,22,22,19,0,21,70,33*85f26b73
$GPGSA,M,3,32,20,23,10,31,,,,,,,,1.4,0.7,1.1*3D
#BESTPOSA,COM1,0,39.0,FINESTEERING,2140,11768.000,01000000,b1f6,14392;SOL_COMPUTED,NARROW_INT,36.10362271490,103.72100407518,1583.9537,-43.1000,WGS84,0.0065,0.0087,0.0170,"0",1.000,0.000,22,22,22,19,00,21,70,33*45245b1f
#BESTXYZA,COM1,0,39.0,FINESTEERING,2140,11768.000,01000000,fac1,14392;SOL_COMPUTED,NARROW_INT,-1224035.6735,5013208.4740,3738395.5585,0.0076,0.0168,0.0083,SOL_COMPUTED,NARROW_INT,0.0008,0.0057,0.0022,0.0094,0.0189,0.0101,"0",0.250,1.000,0.000,22,22,22,19,0,21,70,33*79f39c26
$GPGSA,M,3,32,20,23,10,31,,,,,,,,1.4,0.7,1.1*3D
#BESTPOSA,COM1,0,39.0,FINESTEERING,2140,11769.000,01000000,b1f6,14392;SOL_COMPUTED,NARROW_INT,36.10362272354,103.72100404945,1583.9520,-43.1000,WGS84,0.0066,0.0091,0.0174,"0",1.000,0.000,22,22,22,19,00,21,70,33*b5f6cbcd
#BESTXYZA,COM1,0,39.0,FINESTEERING,2140,11769.000,01000000,fac1,14392;SOL_COMPUTED,NARROW_INT,-1224035.6708,5013208.4727,3738395.5583,0.0078,0.0172,0.0086,SOL_COMPUTED,NARROW_INT,0.0043,0.0019,-0.0019,0.0103,0.0204,0.0111,"0",0.250,1.000,0.000,22,22,22,19,0,21,70,33*53243649
$GPGSA,M,3,32,20,23,10,31,,,,,,,,1.4,0.7,1.1*3D
#BESTPOSA,COM1,0,34.5,FINESTEERING,2140,11770.000,01000000,b1f6,14392;SOL_COMPUTED,NARROW_INT,36.10362273247,103.72100408016,1583.9553,-43.1000,WGS84,0.0066,0.0091,0.0176,"0",1.000,0.000,22,22,22,19,00,21,70,33*ceb7ee0f
#BESTXYZA,COM1,0,34.5,FINESTEERING,2140,11770.000,01000000,fac1,14392;SOL_COMPUTED,NARROW_INT,-1224035.6739,5013208.4740,3738395.5610,0.0078,0.0172,0.0088,SOL_COMPUTED,NARROW_INT,-0.0018,0.0030,0.0025,0.0101,0.0206,0.0117,"0",0.250,1.000,0.000,22,22,22,19,0,21,70,33*0227d7ea
$GPGSA,M,3,32,20,23,10,31,,,,,,,,1.4,0.7,1.1*3D
#BESTPOSA,COM1,0,34.5,FINESTEERING,2140,11771.000,01000000,b1f6,14392;SOL_COMPUTED,NARROW_INT,36.10362272836,103.72100406494,1583.9527,-43.1000,WGS84,0.0066,0.0090,0.0175,"0",1.000,0.000,22,22,22,19,00,21,70,33*231edb85
#BESTXYZA,COM1,0,34.5,FINESTEERING,2140,11771.000,01000000,fac1,14392;SOL_COMPUTED,NARROW_INT,-1224035.6722,5013208.4726,3738395.5592,0.0078,0.0172,0.0087,SOL_COMPUTED,NARROW_INT,-0.0022,-0.0081,-0.0050,0.0100,0.0203,0.0116,"0",0.250,1.000,0.000,22,22,22,19,0,21,70,33*2f8bb2b3
$GPGSA,M,3,32,20,23,10,31,,,,,,,,1.4,0.7,1.1*3D
#BESTPOSA,COM1,0,39.0,FINESTEERING,2140,11772.000,01000000,b1f6,14392;SOL_COMPUTED,NARROW_INT,36.10362271450,103.72100406095,1583.9596,-43.1000,WGS84,0.0065,0.0089,0.0174,"0",1.000,0.000,22,22,22,19,00,21,70,33*43d76913
#BESTXYZA,COM1,0,39.0,FINESTEERING,2140,11772.000,01000000,fac1,14392;SOL_COMPUTED,NARROW_INT,-1224035.6734,5013208.4790,3738395.5620,0.0077,0.0170,0.0087,SOL_COMPUTED,NARROW_INT,0.0011,0.0031,0.0029,0.0098,0.0198,0.0114,"0",0.250,1.000,0.000,22,22,22,19,0,21,70,33*72718444
$GPGSA,M,3,32,20,23,10,31,,,,,,,,1.4,0.7,1.1*3D
#BESTPOSA,COM1,0,38.0,FINESTEERING,2140,11773.000,01000000,b1f6,14392;SOL_COMPUTED,NARROW_INT,36.10362272622,103.72100404646,1583.9542,-43.1000,WGS84,0.0065,0.0088,0.0173,"0",1.000,0.000,22,22,22,19,00,21,70,33*036a018d
#BESTXYZA,COM1,0,38.0,FINESTEERING,2140,11773.000,01000000,fac1,14392;SOL_COMPUTED,NARROW_INT,-1224035.6709,5013208.4743,3738395.5599,0.0076,0.0169,0.0086,SOL_COMPUTED,NARROW_INT,0.0019,0.0055,0.0030,0.0096,0.0195,0.0110,"0",0.250,1.000,0.000,22,22,22,19,0,21,70,33*6b02c4c7
$GPGSA,M,3,32,20,23,10,31,,,,,,,,1.4,0.7,1.1*3D
#BESTPOSA,COM1,0,38.0,FINESTEERING,2140,11774.000,01000000,b1f6,14392;SOL_COMPUTED,NARROW_INT,36.10362269548,103.72100401998,1583.9619,-43.1000,WGS84,0.0065,0.0088,0.0172,"0",1.000,0.000,22,22,22,19,00,21,70,33*dafb9956
#BESTXYZA,COM1,0,38.0,FINESTEERING,2140,11774.000,01000000,fac1,14392;SOL_COMPUTED,NARROW_INT,-1224035.6705,5013208.4829,3738395.5616,0.0076,0.0169,0.0085,SOL_COMPUTED,NARROW_INT,0.0014,0.0084,0.0014,0.0096,0.0193,0.0109,"0",0.250,1.000,0.000,22,22,22,19,0,21,70,33*bbd85703
$GPGSA,M,3,32,20,23,10,31,,,,,,,,1.4,0.7,1.1*3D
#BESTPOSA,COM1,0,39.0,FINESTEERING,2140,11775.000,01000000,b1f6,14392;SOL_COMPUTED,NARROW_INT,36.10362273590,103.72100407241,1583.9524,-43.1000,WGS84,0.0065,0.0088,0.0171,"0",1.000,0.000,22,22,22,19,00,21,70,33*d083db9c
#BESTXYZA,COM1,0,39.0,FINESTEERING,2140,11775.000,01000000,fac1,14392;SOL_COMPUTED,NARROW_INT,-1224035.6727,5013208.4717,3738395.5597,0.0076,0.0168,0.0084,SOL_COMPUTED,NARROW_INT,-0.0017,-0.0086,-0.0023,0.0095,0.0190,0.0105,"0",0.250,1.000,0.000,22,22,22,19,0,21,70,33*4d0c2243
$GPGSA,M,3,32,20,23,10,31,,,,,,,,1.4,0.7,1.1*3D
#BESTPOSA,COM1,0,35.0,FINESTEERING,2140,11776.000,01000000,b1f6,14392;SOL_COMPUTED,NARROW_INT,36.10362272168,103.72100406966,1583.9566,-43.1000,WGS84,0.0064,0.0087,0.0170,"0",1.000,0.000,22,22,22,19,00,21,70,33*d548e40d
#BESTXYZA,COM1,0,35.0,FINESTEERING,2140,11776.000,01000000,fac1,14392;SOL_COMPUTED,NARROW_INT,-1224035.6735,5013208.4760,3738395.5609,0.0076,0.0167,0.0083,SOL_COMPUTED,NARROW_INT,-0.0018,0.0055,0.0027,0.0094,0.0187,0.0103,"0",0.250,1.000,0.000,22,22,22,19,0,21,70,33*c33dcc38
$GPGSA,M,3,32,20,23,10,31,,,,,,,,1.4,0.7,1.1*3D
#BESTPOSA,COM1,0,35.0,FINESTEERING,2140,11777.000,01000000,b1f6,14392;SOL_COMPUTED,NARROW_INT,36.10362273266,103.72100407641,1583.9541,-43.1000,WGS84,0.0065,0.0088,0.0172,"0",1.000,0.000,22,22,22,19,00,21,70,33*2aeb4087
#BESTXYZA,COM1,0,35.0,FINESTEERING,2140,11777.000,01000000,fac1,14392;SOL_COMPUTED,NARROW_INT,-1224035.6734,5013208.4732,3738395.5604,0.0076,0.0169,0.0085,SOL_COMPUTED,NARROW_INT,0.0005,-0.0046,-0.0031,0.0095,0.0193,0.0109,"0",0.250,1.000,0.000,22,22,22,19,0,21,70,33*433a6d86
$GPGSA,M,3,32,20,23,10,31,,,,,,,,1.4,0.7,1.1*3D
#BESTPOSA,COM1,0,39.0,FINESTEERING,2140,11778.000,01000000,b1f6,14392;SOL_COMPUTED,NARROW_INT,36.10362273883,103.72100408406,1583.9482,-43.1000,WGS84,0.0065,0.0088,0.0173,"0",1.000,0.000,22,22,22,19,00,21,70,33*ee9bc614
#BESTXYZA,COM1,0,39.0,FINESTEERING,2140,11778.000,01000000,fac1,14392;SOL_COMPUTED,NARROW_INT,-1224035.6728,5013208.4680,3738395.5574,0.0076,0.0170,0.0086,SOL_COMPUTED,NARROW_INT,0.0037,0.0002,0.0018,0.0096,0.0197,0.0111,"0",0.250,1.000,0.000,22,22,22,19,0,21,70,33*d8ba7937
$GPGSA,M,3,32,20,23,10,31,,,,,,,,1.4,0.7,1.1*3D
#BESTPOSA,COM1,0,39.5,FINESTEERING,2140,11779.000,01000000,b1f6,14392;SOL_COMPUTED,NARROW_INT,36.10362271089,103.72100406607,1583.9559,-43.1000,WGS84,0.0065,0.0088,0.0171,"0",1.000,0.000,22,22,22,19,00,21,70,33*79553480
#BESTXYZA,COM1,0,39.5,FINESTEERING,2140,11779.000,01000000,fac1,14392;SOL_COMPUTED,NARROW_INT,-1224035.6732,5013208.4762,3738395.5595,0.0076,0.0168,0.0085,SOL_COMPUTED,NARROW_INT,-0.0021,0.0029,0.0015,0.0095,0.0192,0.0107,"0",0.250,1.000,0.000,22,22,22,19,0,21,70,33*15f9ba1a
$GPGSA,M,3,32,20,23,10,31,,,,,,,,1.4,0.7,1.1*3D
#BESTPOSA,COM1,0,36.5,FINESTEERING,2140,11780.000,01000000,b1f6,14392;SOL_COMPUTED,NARROW_INT,36.10362272294,103.72100405107,1583.9541,-43.1000,WGS84,0.0064,0.0088,0.0171,"0",1.000,0.000,22,22,22,19,00,21,70,33*9e875df3
#BESTXYZA,COM1,0,36.5,FINESTEERING,2140,11780.000,01000000,fac1,14392;SOL_COMPUTED,NARROW_INT,-1224035.6713,5013208.4744,3738395.5595,0.0076,0.0168,0.0084,SOL_COMPUTED,NARROW_INT,0.0032,0.0092,0.0020,0.0094,0.0191,0.0104,"0",0.250,1.000,0.000,22,22,22,19,0,21,70,33*3b198ed5
$GPGSA,M,3,32,20,23,10,31,,,,,,,,1.4,0.7,1.1*3D
#BESTPOSA,COM1,0,36.5,FINESTEERING,2140,11781.000,01000000,b1f6,14392;SOL_COMPUTED,NARROW_INT,36.10362273888,103.72100406131,1583.9518,-43.1000,WGS84,0.0065,0.0088,0.0172,"0",1.000,0.000,22,22,22,19,00,21,70,33*d52de6a5
#BESTXYZA,COM1,0,36.5,FINESTEERING,2140,11781.000,01000000,fac1,14392;SOL_COMPUTED,NARROW_INT,-1224035.6715,5013208.4713,3738395.5596,0.0076,0.0169,0.0084,SOL_COMPUTED,NARROW_INT,0.0036,-0.0067,-0.0008,0.0096,0.0195,0.0106,"0",0.250,1.000,0.000,22,22,22,19,0,21,70,33*f275bbab
$GPGSA,M,3,32,20,23,10,31,,,,,,,,1.4,0.7,1.1*3D
#BESTPOSA,COM1,0,35.5,FINESTEERING,2140,11782.000,01000000,b1f6,14392;SOL_COMPUTED,NARROW_INT,36.10362271773,103.72100406287,1583.9612,-43.1000,WGS84,0.0065,0.0089,0.0174,"0",1.000,0.000,22,22,22,19,00,21,70,33*44f2d9c0
#BESTXYZA,COM1,0,35.5,FINESTEERING,2140,11782.000,01000000,fac1,14392;SOL_COMPUTED,NARROW_INT,-1224035.6738,5013208.4800,3738395.5632,0.0076,0.0171,0.0086,SOL_COMPUTED,NARROW_INT,-0.0029,0.0058,0.0033,0.0097,0.0200,0.0111,"0",0.250,1.000,0.000,22,22,22,19,0,21,70,33*2b1b39af
$GPGSA,M,3,32,20,23,10,31,,,,,,,,1.4,0.7,1.1*3D
#BESTPOSA,COM1,0,35.5,FINESTEERING,2140,11783.000,01000000,b1f6,14392;SOL_COMPUTED,NARROW_INT,36.10362272675,103.72100406419,1583.9522,-43.1000,WGS84,0.0066,0.0090,0.0176,"0",1.000,0.000,22,22,22,19,00,21,70,33*cc3b4da9
#BESTXYZA,COM1,0,35.5,FINESTEERING,2140,11783.000,01000000,fac1,14392;SOL_COMPUTED,NARROW_INT,-1224035.6721,5013208.4724,3738395.5587,0.0078,0.0173,0.0088,SOL_COMPUTED,NARROW_INT,0.0018,-0.0017,-0.0003,0.0101,0.0206,0.0117,"0",0.250,1.000,0.000,22,22,22,19,0,21,70,33*c549db87
$GPGSA,M,3,32,20,23,10,31,,,,,,,,1.4,0.7,1.1*3D
#BESTPOSA,COM1,0,38.5,FINESTEERING,2140,11784.000,01000000,b1f6,14392;SOL_COMPUTED,NARROW_INT,36.10362271064,103.72100405095,1583.9593,-43.1000,WGS84,0.0066,0.0090,0.0175,"0",1.000,0.000,22,22,22,19,00,21,70,33*d2f66387
#BESTXYZA,COM1,0,38.5,FINESTEERING,2140,11784.000,01000000,fac1,14392;SOL_COMPUTED,NARROW_INT,-1224035.6725,5013208.4792,3738395.5615,0.0077,0.0172,0.0086,SOL_COMPUTED,NARROW_INT,-0.0014,0.0054,0.0021,0.0099,0.0205,0.0112,"0",0.250,1.000,0.000,22,22,22,19,0,21,70,33*aa747de2
$GPGSA,M,3,32,20,23,10,31,,,,,,,,1.4,0.7,1.1*3D
#BESTPOSA,COM1,0,40.0,FINESTEERING,2140,11785.000,01000000,b1f6,14392;SOL_COMPUTED,NARROW_INT,36.10362270333,103.72100404431,1583.9585,-43.1000,WGS84,0.0065,0.0089,0.0174,"0",1.000,0.000,22,22,22,19,00,21,70,33*d28e6c50
#BESTXYZA,COM1,0,40.0,FINESTEERING,2140,11785.000,01000000,fac1,14392;SOL_COMPUTED,NARROW_INT,-1224035.6719,5013208.4792,3738395.5604,0.0076,0.0171,0.0086,SOL_COMPUTED,NARROW_INT,-0.0014,0.0099,0.0034,0.0097,0.0201,0.0112,"0",0.250,1.000,0.000,22,22,22,19,0,21,70,33*17dd4b82
$GPGSA,M,3,32,20,23,10,31,,,,,,,,1.4,0.7,1.1*3D
#BESTPOSA,COM1,0,37.5,FINESTEERING,2140,11786.000,01000000,b1f6,14392;SOL_COMPUTED,NARROW_INT,36.10362273630,103.72100407914,1583.9497,-43.1000,WGS84,0.0065,0.0088,0.0173,"0",1.000,0.000,22,22,22,19,00,21,70,33*810855f8
#BESTXYZA,COM1,0,37.5,FINESTEERING,2140,11786.000,01000000,fac1,14392;SOL_COMPUTED,NARROW_INT,-1224035.6727,5013208.4695,3738395.5581,0.0076,0.0170,0.0086,SOL_COMPUTED,NARROW_INT,0.0010,-0.0078,-0.0037,0.0095,0.0197,0.0110,"0",0.250,1.000,0.000,22,22,22,19,0,21,70,33*547a29a7
$GPGSA,M,3,32,20,23,10,31,,,,,,,,1.4,0.7,1.1*3D
#BESTPOSA,COM1,0,37.5,FINESTEERING,2140,11787.000,01000000,b1f6,14392;SOL_COMPUTED,NARROW_INT,36.10362270312,103.72100407644,1583.9594,-43.1000,WGS84,0.0065,0.0087,0.0172,"0",1.000,0.000,22,22,22,19,00,21,70,33*3ac89de2
#BESTXYZA,COM1,0,37.5,FINESTEERING,2140,11787.000,01000000,fac1,14392;SOL_COMPUTED,NARROW_INT,-1224035.6749,5013208.4792,3738395.5608,0.0075,0.0169,0.0085,SOL_COMPUTED,NARROW_INT,-0.0015,0.0020,-0.0007,0.0094,0.0193,0.0108,"0",0.250,1.000,0.000,22,22,22,19,0,21,70,33*561fd464
$GPGSA,M,3,32,20,23,10,31,,,,,,,,1.4,0.7,1.1*3D
#BESTPOSA,COM1,0,39.5,FINESTEERING,2140,11788.000,01000000,b1f6,14392;SOL_COMPUTED,NARROW_INT,36.10362274157,103.72100407991,1583.9485,-43.1000,WGS84,0.0064,0.0086,0.0170,"0",1.000,0.000,22,22,22,19,00,21,70,33*fe32c687
#BESTXYZA,COM1,0,39.5,FINESTEERING,2140,11788.000,01000000,fac1,14392;SOL_COMPUTED,NARROW_INT,-1224035.6725,5013208.4681,3738395.5579,0.0075,0.0167,0.0084,SOL_COMPUTED,NARROW_INT,-0.0024,-0.0039,-0.0014,0.0092,0.0188,0.0104,"0",0.250,1.000,0.000,22,22,22,19,0,21,70,33*cb2cc9ae
$GPGSA,M,3,32,20,23,10,31,,,,,,,,1.4,0.7,1.1*3D
#BESTPOSA,COM1,0,37.0,FINESTEERING,2140,11789.000,01000000,b1f6,14392;SOL_COMPUTED,NARROW_INT,36.10362272533,103.72100404732,1583.9542,-43.1000,WGS84,0.0064,0.0086,0.0169,"0",1.000,0.000,22,22,22,19,00,21,70,33*1c052cc1
#BESTXYZA,COM1,0,37.0,FINESTEERING,2140,11789.000,01000000,fac1,14392;SOL_COMPUTED,NARROW_INT,-1224035.6710,5013208.4743,3738395.5597,0.0075,0.0166,0.0083,SOL_COMPUTED,NARROW_INT,0.0014,0.0017,0.0006,0.0091,0.0182,0.0103,"0",0.250,1.000,0.000,22,22,22,19,0,21,70,33*a72394d1
$GPGSA,M,3,32,20,23,10,31,,,,,,,,1.4,0.7,1.1*3D
#BESTPOSA,COM1,0,37.0,FINESTEERING,2140,11790.000,01000000,b1f6,14392;SOL_COMPUTED,NARROW_INT,36.10362272844,103.72100408550,1583.9519,-43.1000,WGS84,0.0063,0.0084,0.0167,"0",1.000,0.000,22,22,22,19,00,21,70,33*afac77dd
#BESTXYZA,COM1,0,37.0,FINESTEERING,2140,11790.000,01000000,fac1,14392;SOL_COMPUTED,NARROW_INT,-1224035.6738,5013208.4715,3738395.5587,0.0074,0.0163,0.0083,SOL_COMPUTED,NARROW_INT,-0.0008,-0.0073,-0.0019,0.0089,0.0174,0.0102,"0",0.250,1.000,0.000,22,22,22,19,0,21,70,33*993a64c7
$GPGSA,M,3,32,20,23,10,31,,,,,,,,1.4,0.7,1.1*3D
#BESTPOSA,COM1,0,36.5,FINESTEERING,2140,11791.000,01000000,b1f6,14392;SOL_COMPUTED,NARROW_INT,36.10362273938,103.72100409406,1583.9499,-43.1000,WGS84,0.0063,0.0084,0.0168,"0",1.000,0.000,22,22,22,19,00,21,70,33*0f970022
#BESTXYZA,COM1,0,36.5,FINESTEERING,2140,11791.000,01000000,fac1,14392;SOL_COMPUTED,NARROW_INT,-1224035.6740,5013208.4691,3738395.5585,0.0074,0.0164,0.0083,SOL_COMPUTED,NARROW_INT,-0.0046,-0.0008,0.0040,0.0090,0.0175,0.0103,"0",0.250,1.000,0.000,22,22,22,19,0,21,70,33*8424dd09
$GPGSA,M,3,32,20,23,10,31,,,,,,,,1.4,0.7,1.1*3D
#BESTPOSA,COM1,0,36.5,FINESTEERING,2140,11792.000,01000000,b1f6,14392;SOL_COMPUTED,NARROW_INT,36.10362271025,103.72100405484,1583.9587,-43.1000,WGS84,0.0066,0.0089,0.0174,"0",1.000,0.000,22,22,22,19,00,21,70,33*543ee78a
#BESTXYZA,COM1,0,36.5,FINESTEERING,2140,11792.000,01000000,fac1,14392;SOL_COMPUTED,NARROW_INT,-1224035.6727,5013208.4787,3738395.5611,0.0077,0.0171,0.0086,SOL_COMPUTED,NARROW_INT,-0.0010,-0.0049,0.0001,0.0099,0.0200,0.0110,"0",0.250,1.000,0.000,22,22,22,19,0,21,70,33*e7023c51
$GPGSA,M,3,32,20,23,10,31,,,,,,,,1.4,0.7,1.1*3D
#BESTPOSA,COM1,0,36.5,FINESTEERING,2140,11793.000,01000000,b1f6,14392;SOL_COMPUTED,NARROW_INT,36.10362272456,103.72100405118,1583.9556,-43.1000,WGS84,0.0066,0.0089,0.0173,"0",1.000,0.000,22,22,22,19,00,21,70,33*0fe46f04
#BESTXYZA,COM1,0,36.5,FINESTEERING,2140,11793.000,01000000,fac1,14392;SOL_COMPUTED,NARROW_INT,-1224035.6716,5013208.4754,3738395.5605,0.0077,0.0170,0.0086,SOL_COMPUTED,NARROW_INT,-0.0004,-0.0060,-0.0033,0.0100,0.0198,0.0111,"0",0.250,1.000,0.000,22,22,22,19,0,21,70,33*30cf8aef
$GPGSA,M,3,32,20,23,10,31,,,,,,,,1.4,0.7,1.1*3D
#BESTPOSA,COM1,0,36.5,FINESTEERING,2140,11794.000,01000000,b1f6,14392;SOL_COMPUTED,NARROW_INT,36.10362270003,103.72100405891,1583.9595,-43.1000,WGS84,0.0062,0.0084,0.0165,"0",1.000,0.000,22,22,22,19,00,21,70,33*8950979c
#BESTXYZA,COM1,0,36.5,FINESTEERING,2140,11794.000,01000000,fac1,14392;SOL_COMPUTED,NARROW_INT,-1224035.6734,5013208.4798,3738395.5606,0.0075,0.0160,0.0084,SOL_COMPUTED,NARROW_INT,-0.0024,0.0084,0.0012,0.0094,0.0181,0.0107,"0",0.250,1.000,0.000,22,22,22,19,0,21,70,33*74a47d16
$GPGSA,M,3,32,20,23,10,31,,,,,,,,1.4,0.7,1.1*3D
#BESTPOSA,COM1,0,37.0,FINESTEERING,2140,11795.000,01000000,b1f6,14392;SOL_COMPUTED,NARROW_INT,36.10362272831,103.72100406433,1583.9516,-43.1000,WGS84,0.0061,0.0081,0.0160,"0",1.000,0.000,22,22,22,19,00,21,70,33*ea2b7183
#BESTXYZA,COM1,0,37.0,FINESTEERING,2140,11795.000,01000000,fac1,14392;SOL_COMPUTED,NARROW_INT,-1224035.6719,5013208.4717,3738395.5585,0.0074,0.0154,0.0082,SOL_COMPUTED,NARROW_INT,0.0014,-0.0083,-0.0040,0.0091,0.0174,0.0103,"0",0.250,1.000,0.000,22,22,22,19,0,21,70,33*05158ad0
$GPGSA,M,3,32,20,23,10,31,,,,,,,,1.4,0.7,1.1*3D
#BESTPOSA,COM1,0,37.0,FINESTEERING,2140,11796.000,01000000,b1f6,14392;SOL_COMPUTED,NARROW_INT,36.10362271579,103.72100405388,1583.9557,-43.1000,WGS84,0.0061,0.0081,0.0159,"0",1.000,0.000,22,22,22,19,00,21,70,33*2382f23a
#BESTXYZA,COM1,0,37.0,FINESTEERING,2140,11796.000,01000000,fac1,14392;SOL_COMPUTED,NARROW_INT,-1224035.6720,5013208.4760,3738395.5598,0.0074,0.0153,0.0082,SOL_COMPUTED,NARROW_INT,-0.0005,0.0028,0.0014,0.0092,0.0177,0.0105,"0",0.250,1.000,0.000,22,22,22,19,0,21,70,33*194db4a8
$GPGSA,M,3,32,20,23,10,31,,,,,,,,1.4,0.7,1.1*3D
#BESTPOSA,COM1,0,34.0,FINESTEERING,2140,11797.000,01000000,b1f6,14392;SOL_COMPUTED,NARROW_INT,36.10362273680,103.72100406362,1583.9555,-43.1000,WGS84,0.0060,0.0081,0.0157,"0",1.000,0.000,22,22,22,19,00,21,70,33*116e0cb6
#BESTXYZA,COM1,0,34.0,FINESTEERING,2140,11797.000,01000000,fac1,14392;SOL_COMPUTED,NARROW_INT,-1224035.6725,5013208.4743,3738395.5616,0.0074,0.0151,0.0081,SOL_COMPUTED,NARROW_INT,0.0006,0.0073,0.0034,0.0090,0.0173,0.0103,"0",0.250,1.000,0.000,22,22,22,19,0,21,70,33*56da9d03
$GPGSA,M,3,32,20,23,10,31,,,,,,,,1.4,0.7,1.1*3D
#BESTPOSA,COM1,0,34.0,FINESTEERING,2140,11798.000,01000000,b1f6,14392;SOL_COMPUTED,NARROW_INT,36.10362273627,103.72100406962,1583.9531,-43.1000,WGS84,0.0062,0.0084,0.0161,"0",1.000,0.000,22,22,22,19,00,21,70,33*1fc8d76c
#BESTXYZA,COM1,0,34.0,FINESTEERING,2140,11798.000,01000000,fac1,14392;SOL_COMPUTED,NARROW_INT,-1224035.6726,5013208.4723,3738395.5601,0.0075,0.0156,0.0082,SOL_COMPUTED,NARROW_INT,0.0017,-0.0063,-0.0001,0.0095,0.0193,0.0104,"0",0.250,1.000,0.000,22,22,22,19,0,21,70,33*21c54b01
$GPGSA,M,3,32,20,23,10,31,,,,,,,,1.4,0.7,1.1*3D
#BESTPOSA,COM1,0,38.5,FINESTEERING,2140,11799.000,01000000,b1f6,14392;SOL_COMPUTED,NARROW_INT,36.10362271679,103.72100405071,1583.9537,-43.1000,WGS84,0.0062,0.0084,0.0160,"0",1.000,0.000,22,22,22,19,00,21,70,33*d2c5bef0
#BESTXYZA,COM1,0,38.5,FINESTEERING,2140,11799.000,01000000,fac1,14392;SOL_COMPUTED,NARROW_INT,-1224035.6713,5013208.4744,3738395.5587,0.0075,0.0156,0.0081,SOL_COMPUTED,NARROW_INT,-0.0009,-0.0026,-0.0010,0.0094,0.0193,0.0103,"0",0.250,1.000,0.000,22,22,22,19,0,21,70,33*de2e820c
$GPGSA,M,3,32,20,23,10,31,,,,,,,,1.4,0.7,1.1*3D
#BESTPOSA,COM1,0,38.0,FINESTEERING,2140,11800.000,01000000,b1f6,14392;SOL_COMPUTED,NARROW_INT,36.10362272633,103.72100406022,1583.9492,-43.1000,WGS84,0.0062,0.0083,0.0160,"0",1.000,0.000,22,22,22,19,00,21,70,33*3550d68b
#BESTXYZA,COM1,0,38.0,FINESTEERING,2140,11800.000,01000000,fac1,14392;SOL_COMPUTED,NARROW_INT,-1224035.6711,5013208.4701,3738395.5569,0.0075,0.0155,0.0081,SOL_COMPUTED,NARROW_INT,0.0022,-0.0025,0.0009,0.0094,0.0192,0.0103,"0",0.250,1.000,0.000,22,22,22,19,0,21,70,33*d942cedf
$GPGSA,M,3,32,20,23,10,31,,,,,,,,1.4,0.7,1.1*3D
#BESTPOSA,COM1,0,38.0,FINESTEERING,2140,11801.000,01000000,b1f6,14392;SOL_COMPUTED,NARROW_INT,36.10362273886,103.72100407971,1583.9477,-43.1000,WGS84,0.0061,0.0083,0.0159,"0",1.000,0.000,22,22,22,19,00,21,70,33*3dbe5dce
#BESTXYZA,COM1,0,38.0,FINESTEERING,2140,11801.000,01000000,fac1,14392;SOL_COMPUTED,NARROW_INT,-1224035.6724,5013208.4677,3738395.5572,0.0075,0.0154,0.0081,SOL_COMPUTED,NARROW_INT,0.0011,-0.0038,-0.0050,0.0093,0.0187,0.0103,"0",0.250,1.000,0.000,22,22,22,19,0,21,70,33*7a6817e0
$GPGSA,M,3,32,20,23,10,31,,,,,,,,1.4,0.7,1.1*3D
#BESTPOSA,COM1,0,38.5,FINESTEERING,2140,11802.000,01000000,b1f6,14392;SOL_COMPUTED,NARROW_INT,36.10362273499,103.72100407245,1583.9516,-43.1000,WGS84,0.0060,0.0081,0.0156,"0",1.000,0.000,22,22,22,19,00,21,70,33*e6dfc470
#BESTXYZA,COM1,0,38.5,FINESTEERING,2140,11802.000,01000000,fac1,14392;SOL_COMPUTED,NARROW_INT,-1224035.6725,5013208.4711,3738395.5591,0.0074,0.0151,0.0081,SOL_COMPUTED,NARROW_INT,-0.0011,0.0004,0.0006,0.0091,0.0178,0.0102,"0",0.250,1.000,0.000,22,22,22,19,0,21,70,33*6f4aaf2e
$GPGSA,M,3,32,20,23,10,31,,,,,,,,1.4,0.7,1.1*3D
#BESTPOSA,COM1,0,37.0,FINESTEERING,2140,11803.000,01000000,b1f6,14392;SOL_COMPUTED,NARROW_INT,36.10362272712,103.72100405626,1583.9529,-43.1000,WGS84,0.0061,0.0083,0.0159,"0",1.000,0.000,22,22,22,19,00,21,70,33*72cbb05c
#BESTXYZA,COM1,0,37.0,FINESTEERING,2140,11803.000,01000000,fac1,14392;SOL_COMPUTED,NARROW_INT,-1224035.6715,5013208.4730,3738395.5592,0.0075,0.0154,0.0081,SOL_COMPUTED,NARROW_INT,-0.0012,-0.0018,-0.0012,0.0094,0.0190,0.0103,"0",0.250,1.000,0.000,22,22,22,19,0,21,70,33*aa75976d
$GPGSA,M,3,32,20,23,10,31,,,,,,,,1.4,0.7,1.1*3D
#BESTPOSA,COM1,0,37.0,FINESTEERING,2140,11804.000,01000000,b1f6,14392;SOL_COMPUTED,NARROW_INT,36.10362272252,103.72100407087,1583.9530,-43.1000,WGS84,0.0060,0.0082,0.0157,"0",1.000,0.000,22,22,22,19,00,21,70,33*7b20c2d8
#BESTXYZA,COM1,0,37.0,FINESTEERING,2140,11804.000,01000000,fac1,14392;SOL_COMPUTED,NARROW_INT,-1224035.6729,5013208.4731,3738395.5588,0.0074,0.0152,0.0080,SOL_COMPUTED,NARROW_INT,0.0007,-0.0025,-0.0023,0.0092,0.0183,0.0101,"0",0.250,1.000,0.000,22,22,22,19,0,21,70,33*af3189f4
$GPGSA,M,3,32,20,23,10,31,,,,,,,,1.4,0.7,1.1*3D
#BESTPOSA,COM1,0,39.5,FINESTEERING,2140,11805.000,01000000,b1f6,14392;SOL_COMPUTED,NARROW_INT,36.10362271205,103.72100404680,1583.9544,-43.1000,WGS84,0.0061,0.0083,0.0157,"0",1.000,0.000,22,22,22,19,00,21,70,33*f5d2426b
#BESTXYZA,COM1,0,39.5,FINESTEERING,2140,11805.000,01000000,fac1,14392;SOL_COMPUTED,NARROW_INT,-1224035.6712,5013208.4754,3738395.5587,0.0074,0.0153,0.0080,SOL_COMPUTED,NARROW_INT,0.0033,-0.0002,-0.0012,0.0093,0.0186,0.0101,"0",0.250,1.000,0.000,22,22,22,19,0,21,70,33*e4b5936a
$GPGSA,M,3,32,20,23,10,31,,,,,,,,1.4,0.7,1.1*3D
#BESTPOSA,COM1,0,39.5,FINESTEERING,2140,11806.000,01000000,b1f6,14392;SOL_COMPUTED,NARROW_INT,36.10362272010,103.72100406751,1583.9523,-43.1000,WGS84,0.0061,0.0083,0.0157,"0",1.000,0.000,22,22,22,19,00,21,70,33*c879da1c
#BESTXYZA,COM1,0,39.5,FINESTEERING,2140,11806.000,01000000,fac1,14392;SOL_COMPUTED,NARROW_INT,-1224035.6725,5013208.4727,3738395.5582,0.0074,0.0153,0.0080,SOL_COMPUTED,NARROW_INT,-0.0018,-0.0027,-0.0022,0.0092,0.0186,0.0100,"0",0.250,1.000,0.000,22,22,22,19,0,21,70,33*b0c8e0a2
$GPGSA,M,3,32,20,23,10,31,,,,,,,,1.4,0.7,1.1*3D
#BESTPOSA,COM1,0,38.0,FINESTEERING,2140,11807.000,01000000,b1f6,14392;SOL_COMPUTED,NARROW_INT,36.10362273206,103.72100408468,1583.9526,-43.1000,WGS84,0.0064,0.0084,0.0170,"0",1.000,0.000,22,22,22,19,00,21,70,33*73b0deb9
#BESTXYZA,COM1,0,38.0,FINESTEERING,2140,11807.000,01000000,fac1,14392;SOL_COMPUTED,NARROW_INT,-1224035.6738,5013208.4719,3738395.5594,0.0075,0.0164,0.0084,SOL_COMPUTED,NARROW_INT,-0.0010,0.0040,-0.0007,0.0096,0.0223,0.0114,"0",0.250,1.000,0.000,22,22,22,19,0,21,70,33*f1ff5ab4
$GPGSA,M,3,32,20,23,10,31,,,,,,,,1.4,0.7,1.1*3D
#BESTPOSA,COM1,0,38.0,FINESTEERING,2140,11808.000,01000000,b1f6,14392;SOL_COMPUTED,NARROW_INT,36.10362274206,103.72100407766,1583.9481,-43.1000,WGS84,0.0063,0.0082,0.0167,"0",1.000,0.000,22,22,22,19,00,21,70,33*4b378b75
#BESTXYZA,COM1,0,38.0,FINESTEERING,2140,11808.000,01000000,fac1,14392;SOL_COMPUTED,NARROW_INT,-1224035.6722,5013208.4678,3738395.5577,0.0075,0.0161,0.0084,SOL_COMPUTED,NARROW_INT,0.0005,-0.0002,0.0006,0.0094,0.0213,0.0112,"0",0.250,1.000,0.000,22,22,22,19,0,21,70,33*9be4ee35
$GPGSA,M,3,32,20,23,10,31,,,,,,,,1.4,0.7,1.1*3D
#BESTPOSA,COM1,0,39.0,FINESTEERING,2140,11809.000,01000000,b1f6,14392;SOL_COMPUTED,NARROW_INT,36.10362272927,103.72100403174,1583.9536,-43.1000,WGS84,0.0062,0.0081,0.0162,"0",1.000,0.000,22,22,22,19,00,21,70,33*e57360c6
#BESTXYZA,COM1,0,39.0,FINESTEERING,2140,11809.000,01000000,fac1,14392;SOL_COMPUTED,NARROW_INT,-1224035.6694,5013208.4740,3738395.5598,0.0074,0.0156,0.0082,SOL_COMPUTED,NARROW_INT,0.0030,0.0008,0.0006,0.0092,0.0198,0.0107,"0",0.250,1.000,0.000,22,22,22,19,0,21,70,33*4bbec3a6
$GPGSA,M,3,32,20,23,10,31,,,,,,,,1.4,0.7,1.1*3D
#BESTPOSA,COM1,0,38.5,FINESTEERING,2140,11810.000,01000000,b1f6,14392;SOL_COMPUTED,NARROW_INT,36.10362270740,103.72100404642,1583.9597,-43.1000,WGS84,0.0060,0.0080,0.0157,"0",1.000,0.000,22,22,22,19,00,21,70,33*36d91adf
#BESTXYZA,COM1,0,38.5,FINESTEERING,2140,11810.000,01000000,fac1,14392;SOL_COMPUTED,NARROW_INT,-1224035.6722,5013208.4798,3738395.5614,0.0074,0.0151,0.0081,SOL_COMPUTED,NARROW_INT,-0.0020,-0.0026,-0.0003,0.0091,0.0182,0.0103,"0",0.250,1.000,0.000,22,22,22,19,0,21,70,33*70dadd6c
$GPGSA,M,3,32,20,23,10,31,,,,,,,,1.4,0.7,1.1*3D
#BESTPOSA,COM1,0,38.5,FINESTEERING,2140,11811.000,01000000,b1f6,14392;SOL_COMPUTED,NARROW_INT,36.10362272260,103.72100406284,1583.9500,-43.1000,WGS84,0.0062,0.0084,0.0161,"0",1.000,0.000,22,22,22,19,00,21,70,33*6a8cfb31
#BESTXYZA,COM1,0,38.5,FINESTEERING,2140,11811.000,01000000,fac1,14392;SOL_COMPUTED,NARROW_INT,-1224035.6716,5013208.4709,3738395.5571,0.0076,0.0156,0.0082,SOL_COMPUTED,NARROW_INT,0.0013,0.0005,-0.0025,0.0097,0.0199,0.0106,"0",0.250,1.000,0.000,22,22,22,19,0,21,70,33*6df209dd
$GPGSA,M,3,32,20,23,10,31,,,,,,,,1.4,0.7,1.1*3D
#BESTPOSA,COM1,0,36.5,FINESTEERING,2140,11812.000,01000000,b1f6,14392;SOL_COMPUTED,NARROW_INT,36.10362273088,103.72100406322,1583.9500,-43.1000,WGS84,0.0063,0.0087,0.0163,"0",1.000,0.000,22,22,22,19,00,21,70,33*828aa750
#BESTXYZA,COM1,0,36.5,FINESTEERING,2140,11812.000,01000000,fac1,14392;SOL_COMPUTED,NARROW_INT,-1224035.6715,5013208.4703,3738395.5578,0.0077,0.0158,0.0083,SOL_COMPUTED,NARROW_INT,-0.0021,0.0021,0.0010,0.0102,0.0205,0.0111,"0",0.250,1.000,0.000,22,22,22,19,0,21,70,33*f8b0b62a
#BESTPOSA,COM1,0,49.5,FINESTEERING,2140,11831.000,01100000,b1f6,14392;SOL_COMPUTED,FIXEDPOS,36.10362410052,103.72099511327,1583.8691,-43.1000,WGS84,0.0000,0.0000,0.0000,"",0.000,0.000,22,19,19,18,00,86,30,33*f2a74f0a
$GPGSA,M,3,32,23,21,10,20,31,,,,,,,1.5,0.8,1.3*32
#BESTPOSA,COM1,0,49.5,FINESTEERING,2140,11832.000,01100000,b1f6,14392;SOL_COMPUTED,FIXEDPOS,36.10362410052,103.72099511327,1583.8691,-43.1000,WGS84,0.0000,0.0000,0.0000,"",0.000,0.000,22,19,19,17,00,86,30,33*055d63c4
$GPGSA,M,3,32,23,21,10,20,31,,,,,,,1.5,0.8,1.3*32
#BESTPOSA,COM1,0,51.0,FINESTEERING,2140,11833.000,01100000,b1f6,14392;SOL_COMPUTED,FIXEDPOS,36.10362410052,103.72099511327,1583.8691,-43.1000,WGS84,0.0000,0.0000,0.0000,"",0.000,0.000,22,19,19,17,00,86,30,33*dec92f0c
$GPGSA,M,3,32,23,21,10,20,31,,,,,,,1.5,0.8,1.3*32
#BESTPOSA,COM1,0,51.0,FINESTEERING,2140,11834.000,01100000,b1f6,14392;SOL_COMPUTED,FIXEDPOS,36.10362410052,103.72099511327,1583.8691,-43.1000,WGS84,0.0000,0.0000,0.0000,"",0.000,0.000,22,19,19,17,00,86,30,33*5dfb702d
$GPGSA,M,3,32,23,21,10,20,31,,,,,,,1.5,0.8,1.3*32
#BESTPOSA,COM1,0,48.5,FINESTEERING,2140,11835.000,01100000,b1f6,14392;SOL_COMPUTED,FIXEDPOS,36.10362410052,103.72099511327,1583.8691,-43.1000,WGS84,0.0000,0.0000,0.0000,"",0.000,0.000,22,19,19,18,00,86,30,33*b8b6b235
$GPGSA,M,3,32,23,21,10,20,31,,,,,,,1.5,0.8,1.3*32
#BESTPOSA,COM1,0,48.5,FINESTEERING,2140,11836.000,01100000,b1f6,14392;SOL_COMPUTED,FIXEDPOS,36.10362410052,103.72099511327,1583.8691,-43.1000,WGS84,0.0000,0.0000,0.0000,"",0.000,0.000,22,19,19,17,00,86,30,33*4f4c9efb
$GPGSA,M,3,32,23,21,10,20,31,,,,,,,1.5,0.8,1.3*32
#BESTPOSA,COM1,0,49.0,FINESTEERING,2140,11837.000,01100000,b1f6,14392;SOL_COMPUTED,FIXEDPOS,36.10362410052,103.72099511327,1583.8691,-43.1000,WGS84,0.0000,0.0000,0.0000,"",0.000,0.000,22,19,19,18,00,86,30,33*b7323c67
$GPGSA,M,3,32,23,21,10,20,31,,,,,,,1.5,0.8,1.3*32
#BESTPOSA,COM1,0,49.0,FINESTEERING,2140,11838.000,01100000,b1f6,14392;SOL_COMPUTED,FIXEDPOS,36.10362410052,103.72099511327,1583.8691,-43.1000,WGS84,0.0000,0.0000,0.0000,"",0.000,0.000,22,19,19,17,00,86,30,33*b401fbc7
$GPGSA,M,3,32,23,21,10,20,31,,,,,,,1.5,0.8,1.3*32
#BESTPOSA,COM1,0,51.0,FINESTEERING,2140,11839.000,01100000,b1f6,14392;SOL_COMPUTED,FIXEDPOS,36.10362410052,103.72099511327,1583.8691,-43.1000,WGS84,0.0000,0.0000,0.0000,"",0.000,0.000,22,19,19,17,00,86,30,33*506431d5
$GPGSA,M,3,32,23,21,10,20,31,,,,,,,1.5,0.8,1.3*32
#BESTPOSA,COM1,0,51.0,FINESTEERING,2140,11840.000,01100000,b1f6,14392;SOL_COMPUTED,FIXEDPOS,36.10362410052,103.72099511327,1583.8691,-43.1000,WGS84,0.0000,0.0000,0.0000,"",0.000,0.000,22,19,19,18,00,86,30,33*65d921c3
$GPGSA,M,3,32,23,21,10,20,31,,,,,,,1.5,0.8,1.3*32
#BESTPOSA,COM1,0,46.5,FINESTEERING,2140,11841.000,01100000,b1f6,14392;SOL_COMPUTED,FIXEDPOS,36.10362410052,103.72099511327,1583.8691,-43.1000,WGS84,0.0000,0.0000,0.0000,"",0.000,0.000,22,19,19,18,00,86,30,33*3f593198
$GPGSA,M,3,32,23,21,10,20,31,,,,,,,1.5,0.8,1.3*32
#BESTPOSA,COM1,0,46.5,FINESTEERING,2140,11842.000,01100000,b1f6,14392;SOL_COMPUTED,FIXEDPOS,36.10362410052,103.72099511327,1583.8691,-43.1000,WGS84,0.0000,0.0000,0.0000,"",0.000,0.000,22,19,19,17,00,86,30,33*c8a31d56
$GPGSA,M,3,32,23,21,10,20,31,,,,,,,1.5,0.8,1.3*32
#BESTPOSA,COM1,0,48.5,FINESTEERING,2140,11843.000,01100000,b1f6,14392;SOL_COMPUTED,FIXEDPOS,36.10362410052,103.72099511327,1583.8691,-43.1000,WGS84,0.0000,0.0000,0.0000,"",0.000,0.000,22,19,19,17,00,86,30,33*a948b0b6
$GPGSA,M,3,32,23,21,10,20,31,,,,,,,1.5,0.8,1.3*32
#BESTPOSA,COM1,0,48.5,FINESTEERING,2140,11844.000,01100000,b1f6,14392;SOL_COMPUTED,FIXEDPOS,36.10362410052,103.72099511327,1583.8691,-43.1000,WGS84,0.0000,0.0000,0.0000,"",0.000,0.000,22,19,19,17,00,86,30,33*2a7aef97
$GPGSA,M,3,32,23,21,10,20,31,,,,,,,1.5,0.8,1.3*32
#BESTPOSA,COM1,0,48.5,FINESTEERING,2140,11845.000,01100000,b1f6,14392;SOL_COMPUTED,FIXEDPOS,36.10362410052,103.72099511327,1583.8691,-43.1000,WGS84,0.0000,0.0000,0.0000,"",0.000,0.000,22,19,19,18,00,86,30,33*f45c9034
$GPGSA,M,3,32,23,21,10,20,31,,,,,,,1.5,0.8,1.3*32
#BESTPOSA,COM1,0,51.5,FINESTEERING,2140,11846.000,01100000,b1f6,14392;SOL_COMPUTED,FIXEDPOS,36.10362410052,103.72099511327,1583.8691,-43.1000,WGS84,0.0000,0.0000,0.0000,"",0.000,0.000,23,19,19,18,00,86,30,33*3764366e
$GPGSA,M,3,32,23,21,10,20,31,,,,,,,1.5,0.8,1.3*32
#BESTPOSA,COM1,0,51.5,FINESTEERING,2140,11847.000,01100000,b1f6,14392;SOL_COMPUTED,FIXEDPOS,36.10362410052,103.72099511327,1583.8691,-43.1000,WGS84,0.0000,0.0000,0.0000,"",0.000,0.000,22,19,19,17,00,86,30,33*fe6a2d0d
$GPGSA,M,3,32,23,21,10,20,31,,,,,,,1.5,0.8,1.3*32
#BESTPOSA,COM1,0,52.0,FINESTEERING,2140,11848.000,01100000,b1f6,14392;SOL_COMPUTED,FIXEDPOS,36.10362410052,103.72099511327,1583.8691,-43.1000,WGS84,0.0000,0.0000,0.0000,"",0.000,0.000,22,19,19,18,00,86,30,33*e8538058
$GPGSA,M,3,32,23,21,10,20,31,,,,,,,1.5,0.8,1.3*32
#BESTPOSA,COM1,0,52.0,FINESTEERING,2140,11849.000,01100000,b1f6,14392;SOL_COMPUTED,FIXEDPOS,36.10362410052,103.72099511327,1583.8691,-43.1000,WGS84,0.0000,0.0000,0.0000,"",0.000,0.000,22,19,19,18,00,86,30,33*11052ace
$GPGSA,M,3,32,23,21,10,20,31,,,,,,,1.5,0.8,1.3*32
#BESTPOSA,COM1,0,52.0,FINESTEERING,2140,11850.000,01100000,b1f6,14392;SOL_COMPUTED,FIXEDPOS,36.10362410052,103.72099511327,1583.8691,-43.1000,WGS84,0.0000,0.0000,0.0000,"",0.000,0.000,22,19,19,18,00,86,30,33*56b7ad37
$GPGSA,M,3,32,23,21,10,20,31,,,,,,,1.5,0.8,1.3*32
#BESTPOSA,COM1,0,50.0,FINESTEERING,2140,11851.000,01100000,b1f6,14392;SOL_COMPUTED,FIXEDPOS,36.10362410052,103.72099511327,1583.8691,-43.1000,WGS84,0.0000,0.0000,0.0000,"",0.000,0.000,22,19,19,17,00,86,30,33*bbc3655e
$GPGSA,M,3,32,23,21,10,20,31,,,,,,,1.5,0.8,1.3*32
#BESTPOSA,COM1,0,50.0,FINESTEERING,2140,11852.000,01100000,b1f6,14392;SOL_COMPUTED,FIXEDPOS,36.10362410052,103.72099511327,1583.8691,-43.1000,WGS84,0.0000,0.0000,0.0000,"",0.000,0.000,22,19,19,17,00,86,30,33*6b499ca5
$GPGSA,M,3,32,23,21,10,20,31,,,,,,,1.5,0.8,1.3*32
#BESTPOSA,COM1,0,48.5,FINESTEERING,2140,11853.000,01100000,b1f6,14392;SOL_COMPUTED,FIXEDPOS,36.10362410052,103.72099511327,1583.8691,-43.1000,WGS84,0.0000,0.0000,0.0000,"",0.000,0.000,22,19,19,18,00,86,30,33*97ad0558
$GPGSA,M,3,32,23,21,10,20,31,,,,,,,1.5,0.8,1.3*32
#BESTPOSA,COM1,0,48.5,FINESTEERING,2140,11854.000,01100000,b1f6,14392;SOL_COMPUTED,FIXEDPOS,36.10362410052,103.72099511327,1583.8691,-43.1000,WGS84,0.0000,0.0000,0.0000,"",0.000,0.000,22,19,19,18,00,86,30,33*149f5a79
$GPGSA,M,3,32,23,21,10,20,31,,,,,,,1.5,0.8,1.3*32
#BESTPOSA,COM1,0,49.0,FINESTEERING,2140,11855.000,01100000,b1f6,14392;SOL_COMPUTED,FIXEDPOS,36.10362410052,103.72099511327,1583.8691,-43.1000,WGS84,0.0000,0.0000,0.0000,"",0.000,0.000,22,19,19,18,00,86,30,33*cb912dd0
$GPGSA,M,3,32,23,21,10,20,31,,,,,,,1.5,0.8,1.3*32
#BESTPOSA,COM1,0,49.0,FINESTEERING,2140,11856.000,01100000,b1f6,14392;SOL_COMPUTED,FIXEDPOS,36.10362410052,103.72099511327,1583.8691,-43.1000,WGS84,0.0000,0.0000,0.0000,"",0.000,0.000,22,19,19,18,00,86,30,33*1b1bd42b
$GPGSA,M,3,32,23,21,10,20,31,,,,,,,1.5,0.8,1.3*32
#BESTPOSA,COM1,0,51.0,FINESTEERING,2140,11857.000,01100000,b1f6,14392;SOL_COMPUTED,FIXEDPOS,36.10362410052,103.72099511327,1583.8691,-43.1000,WGS84,0.0000,0.0000,0.0000,"",0.000,0.000,22,19,19,18,00,86,30,33*ff7e1e39
$GPGSA,M,3,32,23,21,10,20,31,,,,,,,1.5,0.8,1.3*32
#BESTPOSA,COM1,0,51.0,FINESTEERING,2140,11858.000,01100000,b1f6,14392;SOL_COMPUTED,FIXEDPOS,36.10362410052,103.72099511327,1583.8691,-43.1000,WGS84,0.0000,0.0000,0.0000,"",0.000,0.000,22,19,19,17,00,86,30,33*fc4dd999
$GPGSA,M,3,32,23,21,10,20,31,,,,,,,1.5,0.8,1.3*32
#BESTPOSA,COM1,0,45.0,FINESTEERING,2140,11859.000,01100000,b1f6,14392;SOL_COMPUTED,FIXEDPOS,36.10362410052,103.72099511327,1583.8691,-43.1000,WGS84,0.0000,0.0000,0.0000,"",0.000,0.000,22,19,19,17,00,86,30,33*b3c7a337
$GPGSA,M,3,32,23,21,10,20,31,,,,,,,1.5,0.8,1.3*32
#BESTPOSA,COM1,0,45.0,FINESTEERING,2140,11860.000,01100000,b1f6,14392;SOL_COMPUTED,FIXEDPOS,36.10362410052,103.72099511327,1583.8691,-43.1000,WGS84,0.0000,0.0000,0.0000,"",0.000,0.000,22,19,19,18,00,86,30,33*e02f304d
$GPGSA,M,3,32,23,21,10,20,31,,,,,,,1.5,0.8,1.3*32
#BESTPOSA,COM1,0,52.0,FINESTEERING,2140,11861.000,01100000,b1f6,14392;SOL_COMPUTED,FIXEDPOS,36.10362410052,103.72099511327,1583.8691,-43.1000,WGS84,0.0000,0.0000,0.0000,"",0.000,0.000,22,19,19,18,00,86,30,33*855ea6cc
$GPGSA,M,3,32,23,21,10,20,31,,,,,,,1.5,0.8,1.3*32
#BESTPOSA,COM1,0,51.5,FINESTEERING,2140,11862.000,01100000,b1f6,14392;SOL_COMPUTED,FIXEDPOS,36.10362410052,103.72099511327,1583.8691,-43.1000,WGS84,0.0000,0.0000,0.0000,"",0.000,0.000,22,19,19,18,00,86,30,33*40de35c2
$GPGSA,M,3,32,23,21,10,20,31,,,,,,,1.5,0.8,1.3*32
#BESTPOSA,COM1,0,50.5,FINESTEERING,2140,11863.000,01100000,b1f6,14392;SOL_COMPUTED,FIXEDPOS,36.10362410052,103.72099511327,1583.8691,-43.1000,WGS84,0.0000,0.0000,0.0000,"",0.000,0.000,22,19,19,17,00,86,30,33*87511184
$GPGSA,M,3,32,23,21,10,20,31,,,,,,,1.5,0.8,1.3*32
#BESTPOSA,COM1,0,50.5,FINESTEERING,2140,11864.000,01100000,b1f6,14392;SOL_COMPUTED,FIXEDPOS,36.10362410052,103.72099511327,1583.8691,-43.1000,WGS84,0.0000,0.0000,0.0000,"",0.000,0.000,22,19,19,18,00,86,30,33*23139b90
$GPGSA,M,3,32,23,21,10,20,31,,,,,,,1.5,0.8,1.3*32
#BESTPOSA,COM1,0,49.0,FINESTEERING,2140,11865.000,01100000,b1f6,14392;SOL_COMPUTED,FIXEDPOS,36.10362410052,103.72099511327,1583.8691,-43.1000,WGS84,0.0000,0.0000,0.0000,"",0.000,0.000,22,19,19,18,00,86,30,33*e12e8cbd
$GPGSA,M,3,32,23,21,10,20,31,,,,,,,1.5,0.8,1.3*32
#BESTPOSA,COM1,0,49.0,FINESTEERING,2140,11866.000,01100000,b1f6,14392;SOL_COMPUTED,FIXEDPOS,36.10362410052,103.72099511327,1583.8691,-43.1000,WGS84,0.0000,0.0000,0.0000,"",0.000,0.000,22,19,19,18,00,86,30,33*31a47546
$GPGSA,M,3,32,23,21,10,20,31,,,,,,,1.5,0.8,1.3*32
#BESTPOSA,COM1,0,52.0,FINESTEERING,2140,11867.000,01100000,b1f6,14392;SOL_COMPUTED,FIXEDPOS,36.10362410052,103.72099511327,1583.8691,-43.1000,WGS84,0.0000,0.0000,0.0000,"",0.000,0.000,23,19,19,17,00,86,30,33*cf62e28e
$GPGSA,M,3,32,23,21,10,20,31,,,,,,,1.5,0.8,1.3*32
#BESTPOSA,COM1,0,49.0,FINESTEERING,2140,11868.000,01100000,b1f6,14392;SOL_COMPUTED,FIXEDPOS,36.10362410052,103.72099511327,1583.8691,-43.1000,WGS84,0.0000,0.0000,0.0000,"",0.000,0.000,22,19,19,17,00,86,30,33*cbc11870
$GPGSA,M,3,32,23,21,10,20,31,,,,,,,1.5,0.8,1.3*32
#BESTPOSA,COM1,0,49.0,FINESTEERING,2140,11869.000,01100000,b1f6,14392;SOL_COMPUTED,FIXEDPOS,36.10362410052,103.72099511327,1583.8691,-43.1000,WGS84,0.0000,0.0000,0.0000,"",0.000,0.000,23,19,19,18,00,86,30,33*02cf0313
$GPGSA,M,3,32,23,21,10,20,31,,,,,,,1.5,0.8,1.3*32
#BESTPOSA,COM1,0,50.0,FINESTEERING,2140,11870.000,01100000,b1f6,14392;SOL_COMPUTED,FIXEDPOS,36.10362410052,103.72099511327,1583.8691,-43.1000,WGS84,0.0000,0.0000,0.0000,"",0.000,0.000,22,19,19,18,00,86,30,33*56cfdb4b
$GPGSA,M,3,32,23,21,10,20,31,,,,,,,1.5,0.8,1.3*32
#BESTPOSA,COM1,0,50.0,FINESTEERING,2140,11871.000,01100000,b1f6,14392;SOL_COMPUTED,FIXEDPOS,36.10362410052,103.72099511327,1583.8691,-43.1000,WGS84,0.0000,0.0000,0.0000,"",0.000,0.000,22,19,19,18,00,86,30,33*af9971dd
$GPGSA,M,3,32,23,21,10,20,31,,,,,,,1.5,0.8,1.3*32
#BESTPOSA,COM1,0,49.0,FINESTEERING,2140,11872.000,01100000,b1f6,14392;SOL_COMPUTED,FIXEDPOS,36.10362410052,103.72099511327,1583.8691,-43.1000,WGS84,0.0000,0.0000,0.0000,"",0.000,0.000,22,19,19,18,00,86,30,33*7b89b347
$GPGSA,M,3,32,23,21,10,20,31,,,,,,,1.5,0.8,1.3*32
#BESTPOSA,COM1,0,49.0,FINESTEERING,2140,11873.000,01100000,b1f6,14392;SOL_COMPUTED,FIXEDPOS,36.10362410052,103.72099511327,1583.8691,-43.1000,WGS84,0.0000,0.0000,0.0000,"",0.000,0.000,22,19,19,17,00,86,30,33*a5afcce4
$GPGSA,M,3,32,23,21,10,20,31,,,,,,,1.5,0.8,1.3*32
#BESTPOSA,COM1,0,50.5,FINESTEERING,2140,11874.000,01100000,b1f6,14392;SOL_COMPUTED,FIXEDPOS,36.10362410052,103.72099511327,1583.8691,-43.1000,WGS84,0.0000,0.0000,0.0000,"",0.000,0.000,22,19,19,18,00,86,30,33*3a86fb4b
$GPGSA,M,3,32,23,21,10,20,31,,,,,,,1.5,0.8,1.3*32
#BESTPOSA,COM1,0,50.0,FINESTEERING,2140,11875.000,01100000,b1f6,14392;SOL_COMPUTED,FIXEDPOS,36.10362410052,103.72099511327,1583.8691,-43.1000,WGS84,0.0000,0.0000,0.0000,"",0.000,0.000,22,19,19,18,00,86,30,33*fc21d707
$GPGSA,M,3,32,23,21,10,20,31,,,,,,,1.5,0.8,1.3*32
#BESTPOSA,COM1,0,50.0,FINESTEERING,2140,11876.000,01100000,b1f6,14392;SOL_COMPUTED,FIXEDPOS,36.10362410052,103.72099511327,1583.8691,-43.1000,WGS84,0.0000,0.0000,0.0000,"",0.000,0.000,22,19,19,17,00,86,30,33*0bdbfbc9
$GPGSA,M,3,32,23,21,10,20,31,,,,,,,1.5,0.8,1.3*32
#BESTPOSA,COM1,0,49.0,FINESTEERING,2140,11877.000,01100000,b1f6,14392;SOL_COMPUTED,FIXEDPOS,36.10362410052,103.72099511327,1583.8691,-43.1000,WGS84,0.0000,0.0000,0.0000,"",0.000,0.000,22,19,19,17,00,86,30,33*f6176a3e
$GPGSA,M,3,32,23,21,10,20,31,,,,,,,1.5,0.8,1.3*32
#BESTPOSA,COM1,0,49.0,FINESTEERING,2140,11878.000,01100000,b1f6,14392;SOL_COMPUTED,FIXEDPOS,36.10362410052,103.72099511327,1583.8691,-43.1000,WGS84,0.0000,0.0000,0.0000,"",0.000,0.000,23,19,19,17,00,86,30,33*c57c1c6b
$GPGSA,M,3,32,23,21,10,20,31,,,,,,,1.5,0.8,1.3*32
#BESTPOSA,COM1,0,50.5,FINESTEERING,2140,11879.000,01100000,b1f6,14392;SOL_COMPUTED,FIXEDPOS,36.10362410052,103.72099511327,1583.8691,-43.1000,WGS84,0.0000,0.0000,0.0000,"",0.000,0.000,23,19,19,18,00,86,30,33*2031de73
$GPGSA,M,3,32,23,21,10,20,31,,,,,,,1.5,0.8,1.3*32
#BESTPOSA,COM1,0,50.5,FINESTEERING,2140,11880.000,01100000,b1f6,14392;SOL_COMPUTED,FIXEDPOS,36.10362410052,103.72099511327,1583.8691,-43.1000,WGS84,0.0000,0.0000,0.0000,"",0.000,0.000,23,19,19,18,00,86,30,33*fe571d88
$GPGSA,M,3,32,23,21,10,20,31,,,,,,,1.5,0.8,1.3*32
#BESTPOSA,COM1,0,51.0,FINESTEERING,2140,11881.000,01100000,b1f6,14392;SOL_COMPUTED,FIXEDPOS,36.10362410052,103.72099511327,1583.8691,-43.1000,WGS84,0.0000,0.0000,0.0000,"",0.000,0.000,23,19,19,18,00,86,30,33*21596a21
$GPGSA,M,3,32,23,21,10,20,31,,,,,,,1.5,0.8,1.3*32
#BESTPOSA,COM1,0,48.0,FINESTEERING,2140,11882.000,01100000,b1f6,14392;SOL_COMPUTED,FIXEDPOS,36.10362410052,103.72099511327,1583.8691,-43.1000,WGS84,0.0000,0.0000,0.0000,"",0.000,0.000,22,19,19,17,00,86,30,33*c511194e
$GPGSA,M,3,32,23,21,10,20,31,,,,,,,1.5,0.8,1.3*32
#BESTPOSA,COM1,0,48.0,FINESTEERING,2140,11883.000,01100000,b1f6,14392;SOL_COMPUTED,FIXEDPOS,36.10362410052,103.72099511327,1583.8691,-43.1000,WGS84,0.0000,0.0000,0.0000,"",0.000,0.000,22,19,19,18,00,86,30,33*1b3766ed
$GPGSA,M,3,32,23,21,10,20,31,,,,,,,1.5,0.8,1.3*32
#BESTPOSA,COM1,0,51.5,FINESTEERING,2140,11884.000,01100000,b1f6,14392;SOL_COMPUTED,FIXEDPOS,36.10362410052,103.72099511327,1583.8691,-43.1000,WGS84,0.0000,0.0000,0.0000,"",0.000,0.000,22,19,19,18,00,86,30,33*a36e8477
$GPGSA,M,3,32,23,21,10,20,31,,,,,,,1.5,0.8,1.3*32
#BESTPOSA,COM1,0,50.0,FINESTEERING,2140,11885.000,01100000,b1f6,14392;SOL_COMPUTED,FIXEDPOS,36.10362410052,103.72099511327,1583.8691,-43.1000,WGS84,0.0000,0.0000,0.0000,"",0.000,0.000,22,19,19,18,00,86,30,33*7c60f3de
$GPGSA,M,3,32,23,21,10,20,31,,,,,,,1.5,0.8,1.3*32
#BESTPOSA,COM1,0,50.0,FINESTEERING,2140,11886.000,01100000,b1f6,14392;SOL_COMPUTED,FIXEDPOS,36.10362410052,103.72099511327,1583.8691,-43.1000,WGS84,0.0000,0.0000,0.0000,"",0.000,0.000,22,19,19,18,00,86,30,33*acea0a25
$GPGSA,M,3,32,23,21,10,20,31,,,,,,,1.5,0.8,1.3*32
#BESTPOSA,COM1,0,51.5,FINESTEERING,2140,11887.000,01100000,b1f6,14392;SOL_COMPUTED,FIXEDPOS,36.10362410052,103.72099511327,1583.8691,-43.1000,WGS84,0.0000,0.0000,0.0000,"",0.000,0.000,22,19,19,18,00,86,30,33*73e47d8c
$GPGSA,M,3,32,23,21,10,20,31,,,,,,,1.5,0.8,1.3*32
#BESTPOSA,COM1,0,51.5,FINESTEERING,2140,11888.000,01100000,b1f6,14392;SOL_COMPUTED,FIXEDPOS,36.10362410052,103.72099511327,1583.8691,-43.1000,WGS84,0.0000,0.0000,0.0000,"",0.000,0.000,22,19,19,18,00,86,30,33*57a76f19
$GPGSA,M,3,32,23,21,10,20,31,,,,,,,1.5,0.8,1.3*32
#BESTPOSA,COM1,0,49.5,FINESTEERING,2140,11889.000,01100000,b1f6,14392;SOL_COMPUTED,FIXEDPOS,36.10362410052,103.72099511327,1583.8691,-43.1000,WGS84,0.0000,0.0000,0.0000,"",0.000,0.000,22,19,19,18,00,86,30,33*b3c2a50b
$GPGSA,M,3,32,23,21,10,20,31,,,,,,,1.5,0.8,1.3*32
#BESTPOSA,COM1,0,49.5,FINESTEERING,2140,11890.000,01100000,b1f6,14392;SOL_COMPUTED,FIXEDPOS,36.10362410052,103.72099511327,1583.8691,-43.1000,WGS84,0.0000,0.0000,0.0000,"",0.000,0.000,22,19,19,17,00,86,30,33*d300f7c7
$GPGSA,M,3,32,23,21,10,20,31,,,,,,,1.5,0.8,1.3*32
#BESTPOSA,COM1,0,48.0,FINESTEERING,2140,11891.000,01100000,b1f6,14392;SOL_COMPUTED,FIXEDPOS,36.10362410052,103.72099511327,1583.8691,-43.1000,WGS84,0.0000,0.0000,0.0000,"",0.000,0.000,22,19,19,18,00,86,30,33*2b7e555b
$GPGSA,M,3,32,23,21,10,20,31,,,,,,,1.5,0.8,1.3*32
#BESTPOSA,COM1,0,48.0,FINESTEERING,2140,11892.000,01100000,b1f6,14392;SOL_COMPUTED,FIXEDPOS,36.10362410052,103.72099511327,1583.8691,-43.1000,WGS84,0.0000,0.0000,0.0000,"",0.000,0.000,22,19,19,17,00,86,30,33*dc847995
$GPGSA,M,3,32,23,21,10,20,31,,,,,,,1.5,0.8,1.3*32
#BESTPOSA,COM1,0,50.0,FINESTEERING,2140,11893.000,01100000,b1f6,14392;SOL_COMPUTED,FIXEDPOS,36.10362410052,103.72099511327,1583.8691,-43.1000,WGS84,0.0000,0.0000,0.0000,"",0.000,0.000,22,19,19,17,00,86,30,33*38e1b387
$GPGSA,M,3,32,23,21,10,20,31,,,,,,,1.5,0.8,1.3*32
#BESTPOSA,COM1,0,50.0,FINESTEERING,2140,11894.000,01100000,b1f6,14392;SOL_COMPUTED,FIXEDPOS,36.10362410052,103.72099511327,1583.8691,-43.1000,WGS84,0.0000,0.0000,0.0000,"",0.000,0.000,22,19,19,18,00,86,30,33*9ca33993
$GPGSA,M,3,32,23,21,10,20,31,,,,,,,1.5,0.8,1.3*32
#BESTPOSA,COM1,0,46.5,FINESTEERING,2140,11895.000,01100000,b1f6,14392;SOL_COMPUTED,FIXEDPOS,36.10362410052,103.72099511327,1583.8691,-43.1000,WGS84,0.0000,0.0000,0.0000,"",0.000,0.000,22,19,19,18,00,86,30,33*df8a722d
$GPGSA,M,3,32,23,21,10,20,31,,,,,,,1.5,0.8,1.3*32
#BESTPOSA,COM1,0,46.5,FINESTEERING,2140,11896.000,01100000,b1f6,14392;SOL_COMPUTED,FIXEDPOS,36.10362410052,103.72099511327,1583.8691,-43.1000,WGS84,0.0000,0.0000,0.0000,"",0.000,0.000,22,19,19,18,00,86,30,33*0f008bd6
$GPGSA,M,3,32,23,21,10,20,31,,,,,,,1.5,0.8,1.3*32
#BESTPOSA,COM1,0,47.5,FINESTEERING,2140,11897.000,01100000,b1f6,14392;SOL_COMPUTED,FIXEDPOS,36.10362410052,103.72099511327,1583.8691,-43.1000,WGS84,0.0000,0.0000,0.0000,"",0.000,0.000,22,19,19,18,00,86,30,33*efff7aa5
$GPGSA,M,3,32,23,21,10,20,31,,,,,,,1.5,0.8,1.3*32
#BESTPOSA,COM1,0,47.5,FINESTEERING,2140,11898.000,01100000,b1f6,14392;SOL_COMPUTED,FIXEDPOS,36.10362410052,103.72099511327,1583.8691,-43.1000,WGS84,0.0000,0.0000,0.0000,"",0.000,0.000,22,19,19,17,00,86,30,33*ecccbd05
$GPGSA,M,3,32,23,21,10,20,31,,,,,,,1.5,0.8,1.3*32
#BESTPOSA,COM1,0,48.0,FINESTEERING,2140,11899.000,01100000,b1f6,14392;SOL_COMPUTED,FIXEDPOS,36.10362410052,103.72099511327,1583.8691,-43.1000,WGS84,0.0000,0.0000,0.0000,"",0.000,0.000,22,19,19,17,00,86,30,33*ab7fcdda
$GPGSA,M,3,32,23,21,10,20,31,,,,,,,1.5,0.8,1.3*32
#BESTPOSA,COM1,0,48.0,FINESTEERING,2140,11900.000,01100000,b1f6,14392;SOL_COMPUTED,FIXEDPOS,36.10362410052,103.72099511327,1583.8691,-43.1000,WGS84,0.0000,0.0000,0.0000,"",0.000,0.000,22,19,19,17,00,86,30,33*317ed2c7
$GPGSA,M,3,32,23,21,10,20,31,,,,,,,1.5,0.8,1.3*32
#BESTPOSA,COM1,0,48.5,FINESTEERING,2140,11901.000,01100000,b1f6,14392;SOL_COMPUTED,FIXEDPOS,36.10362410052,103.72099511327,1583.8691,-43.1000,WGS84,0.0000,0.0000,0.0000,"",0.000,0.000,22,19,19,17,00,86,30,33*f7d9fe8b
$GPGSA,M,3,32,23,21,10,20,31,,,,,,,1.5,0.8,1.3*32
#BESTPOSA,COM1,0,48.5,FINESTEERING,2140,11902.000,01100000,b1f6,14392;SOL_COMPUTED,FIXEDPOS,36.10362410052,103.72099511327,1583.8691,-43.1000,WGS84,0.0000,0.0000,0.0000,"",0.000,0.000,22,19,19,18,00,86,30,33*0023d245
$GPGSA,M,3,32,23,21,10,20,31,,,,,,,1.5,0.8,1.3*32
#BESTPOSA,COM1,0,50.0,FINESTEERING,2140,11903.000,01100000,b1f6,14392;SOL_COMPUTED,FIXEDPOS,36.10362410052,103.72099511327,1583.8691,-43.1000,WGS84,0.0000,0.0000,0.0000,"",0.000,0.000,22,19,19,18,00,86,30,33*dbb79e8d
$GPGSA,M,3,32,23,21,10,20,31,,,,,,,1.5,0.8,1.3*32
#BESTPOSA,COM1,0,50.0,FINESTEERING,2140,11904.000,01100000,b1f6,14392;SOL_COMPUTED,FIXEDPOS,36.10362410052,103.72099511327,1583.8691,-43.1000,WGS84,0.0000,0.0000,0.0000,"",0.000,0.000,22,19,19,18,00,86,30,33*5885c1ac
$GPGSA,M,3,32,23,21,10,20,31,,,,,,,1.5,0.8,1.3*32
#BESTPOSA,COM1,0,52.0,FINESTEERING,2140,11905.000,01100000,b1f6,14392;SOL_COMPUTED,FIXEDPOS,36.10362410052,103.72099511327,1583.8691,-43.1000,WGS84,0.0000,0.0000,0.0000,"",0.000,0.000,22,19,19,18,00,86,30,33*9281dcf0
$GPGSA,M,3,32,23,21,10,20,31,,,,,,,1.5,0.8,1.3*32
#BESTPOSA,COM1,0,46.5,FINESTEERING,2140,11906.000,01100000,b1f6,14392;SOL_COMPUTED,FIXEDPOS,36.10362410052,103.72099511327,1583.8691,-43.1000,WGS84,0.0000,0.0000,0.0000,"",0.000,0.000,22,19,19,18,00,86,30,33*cb2673e9
$GPGSA,M,3,32,23,21,10,20,31,,,,,,,1.5,0.8,1.3*32
#BESTPOSA,COM1,0,46.5,FINESTEERING,2140,11907.000,01100000,b1f6,14392;SOL_COMPUTED,FIXEDPOS,36.10362410052,103.72099511327,1583.8691,-43.1000,WGS84,0.0000,0.0000,0.0000,"",0.000,0.000,22,19,19,18,00,86,30,33*3270d97f
$GPGSA,M,3,32,23,21,10,20,31,,,,,,,1.5,0.8,1.3*32
#BESTPOSA,COM1,0,47.5,FINESTEERING,2140,11908.000,01100000,b1f6,14392;SOL_COMPUTED,FIXEDPOS,36.10362410052,103.72099511327,1583.8691,-43.1000,WGS84,0.0000,0.0000,0.0000,"",0.000,0.000,22,19,19,18,00,86,30,33*0f9a900f
$GPGSA,M,3,32,23,21,10,20,31,,,,,,,1.5,0.8,1.3*32
#BESTPOSA,COM1,0,49.0,FINESTEERING,2140,11909.000,01100000,b1f6,14392;SOL_COMPUTED,FIXEDPOS,36.10362410052,103.72099511327,1583.8691,-43.1000,WGS84,0.0000,0.0000,0.0000,"",0.000,0.000,22,19,19,17,00,86,30,33*76f06e00
$GPGSA,M,3,32,23,21,10,20,31,,,,,,,1.5,0.8,1.3*32
#BESTPOSA,COM1,0,49.0,FINESTEERING,2140,11910.000,01100000,b1f6,14392;SOL_COMPUTED,FIXEDPOS,36.10362410052,103.72099511327,1583.8691,-43.1000,WGS84,0.0000,0.0000,0.0000,"",0.000,0.000,22,19,19,17,00,86,30,33*3142e9f9
$GPGSA,M,3,32,23,21,10,20,31,,,,,,,1.5,0.8,1.3*32
#BESTPOSA,COM1,0,48.0,FINESTEERING,2140,11911.000,01100000,b1f6,14392;SOL_COMPUTED,FIXEDPOS,36.10362410052,103.72099511327,1583.8691,-43.1000,WGS84,0.0000,0.0000,0.0000,"",0.000,0.000,22,19,19,18,00,86,30,33*f6cdcdbf
$GPGSA,M,3,32,23,21,10,20,31,,,,,,,1.5,0.8,1.3*32
#BESTPOSA,COM1,0,48.0,FINESTEERING,2140,11912.000,01100000,b1f6,14392;SOL_COMPUTED,FIXEDPOS,36.10362410052,103.72099511327,1583.8691,-43.1000,WGS84,0.0000,0.0000,0.0000,"",0.000,0.000,23,19,19,18,00,86,30,33*316f5084
$GPGSA,M,3,32,23,21,10,20,31,,,,,,,1.5,0.8,1.3*32
#BESTPOSA,COM1,0,48.5,FINESTEERING,2140,11913.000,01100000,b1f6,14392;SOL_COMPUTED,FIXEDPOS,36.10362410052,103.72099511327,1583.8691,-43.1000,WGS84,0.0000,0.0000,0.0000,"",0.000,0.000,23,19,19,18,00,86,30,33*f7c87cc8
$GPGSA,M,3,32,23,21,10,20,31,,,,,,,1.5,0.8,1.3*32
#BESTPOSA,COM1,0,50.0,FINESTEERING,2140,11914.000,01100000,b1f6,14392;SOL_COMPUTED,FIXEDPOS,36.10362410052,103.72099511327,1583.8691,-43.1000,WGS84,0.0000,0.0000,0.0000,"",0.000,0.000,23,19,19,18,00,86,30,33*5638c5b7
$GPGSA,M,3,32,23,21,10,20,31,,,,,,,1.5,0.8,1.3*32
#BESTPOSA,COM1,0,50.0,FINESTEERING,2140,11915.000,01100000,b1f6,14392;SOL_COMPUTED,FIXEDPOS,36.10362410052,103.72099511327,1583.8691,-43.1000,WGS84,0.0000,0.0000,0.0000,"",0.000,0.000,23,19,19,17,00,86,30,33*881eba14
$GPGSA,M,3,32,23,21,10,20,31,,,,,,,1.5,0.8,1.3*32
#BESTPOSA,COM1,0,47.5,FINESTEERING,2140,11916.000,01100000,b1f6,14392;SOL_COMPUTED,FIXEDPOS,36.10362410052,103.72099511327,1583.8691,-43.1000,WGS84,0.0000,0.0000,0.0000,"",0.000,0.000,23,19,19,18,00,86,30,33*dc322c17
$GPGSA,M,3,32,23,21,10,20,31,,,,,,,1.5,0.8,1.3*32
#BESTPOSA,COM1,0,47.5,FINESTEERING,2140,11917.000,01100000,b1f6,14392;SOL_COMPUTED,FIXEDPOS,36.10362410052,103.72099511327,1583.8691,-43.1000,WGS84,0.0000,0.0000,0.0000,"",0.000,0.000,23,19,19,18,00,86,30,33*25648681
$GPGSA,M,3,32,23,21,10,20,31,,,,,,,1.5,0.8,1.3*32
#BESTPOSA,COM1,0,51.0,FINESTEERING,2140,11918.000,01100000,b1f6,14392;SOL_COMPUTED,FIXEDPOS,36.10362410052,103.72099511327,1583.8691,-43.1000,WGS84,0.0000,0.0000,0.0000,"",0.000,0.000,22,19,19,18,00,86,30,33*ac7011fc
$GPGSA,M,3,32,23,21,10,20,31,,,,,,,1.5,0.8,1.3*32
#BESTPOSA,COM1,0,48.5,FINESTEERING,2140,11919.000,01100000,b1f6,14392;SOL_COMPUTED,FIXEDPOS,36.10362410052,103.72099511327,1583.8691,-43.1000,WGS84,0.0000,0.0000,0.0000,"",0.000,0.000,22,19,19,17,00,86,30,33*493dd3e4
$GPGSA,M,3,32,23,21,10,20,31,,,,,,,1.5,0.8,1.3*32
#BESTPOSA,COM1,0,48.5,FINESTEERING,2140,11920.000,01100000,b1f6,14392;SOL_COMPUTED,FIXEDPOS,36.10362410052,103.72099511327,1583.8691,-43.1000,WGS84,0.0000,0.0000,0.0000,"",0.000,0.000,22,19,19,17,00,86,30,33*3da595ab
$GPGSA,M,3,32,23,21,10,20,31,,,,,,,1.5,0.8,1.3*32
#BESTPOSA,COM1,0,48.0,FINESTEERING,2140,11921.000,01100000,b1f6,14392;SOL_COMPUTED,FIXEDPOS,36.10362410052,103.72099511327,1583.8691,-43.1000,WGS84,0.0000,0.0000,0.0000,"",0.000,0.000,24,19,19,18,00,86,30,33*ae833652
$GPGSA,M,3,32,23,21,10,20,31,,,,,,,1.5,0.8,1.3*32
#BESTPOSA,COM1,0,48.0,FINESTEERING,2140,11922.000,01100000,b1f6,14392;SOL_COMPUTED,FIXEDPOS,36.10362410052,103.72099511327,1583.8691,-43.1000,WGS84,0.0000,0.0000,0.0000,"",0.000,0.000,23,19,19,18,00,86,30,33*1bd0f1e9
$GPGSA,M,3,32,23,21,10,20,31,,,,,,,1.5,0.8,1.3*32
#BESTPOSA,COM1,0,51.5,FINESTEERING,2140,11923.000,01100000,b1f6,14392;SOL_COMPUTED,FIXEDPOS,36.10362410052,103.72099511327,1583.8691,-43.1000,WGS84,0.0000,0.0000,0.0000,"",0.000,0.000,23,19,19,17,00,86,30,33*fe9d33f1
$GPGSA,M,3,32,23,21,10,20,31,,,,,,,1.5,0.8,1.3*32
#BESTPOSA,COM1,0,50.5,FINESTEERING,2140,11924.000,01100000,b1f6,14392;SOL_COMPUTED,FIXEDPOS,36.10362410052,103.72099511327,1583.8691,-43.1000,WGS84,0.0000,0.0000,0.0000,"",0.000,0.000,23,19,19,17,00,86,30,33*64063735
$GPGSA,M,3,32,23,21,10,20,31,,,,,,,1.5,0.8,1.3*32
#BESTPOSA,COM1,0,50.5,FINESTEERING,2140,11925.000,01100000,b1f6,14392;SOL_COMPUTED,FIXEDPOS,36.10362410052,103.72099511327,1583.8691,-43.1000,WGS84,0.0000,0.0000,0.0000,"",0.000,0.000,23,19,19,17,00,86,30,33*9d509da3
$GPGSA,M,3,32,23,21,10,20,31,,,,,,,1.5,0.8,1.3*32
#BESTPOSA,COM1,0,48.0,FINESTEERING,2140,11926.000,01100000,b1f6,14392;SOL_COMPUTED,FIXEDPOS,36.10362410052,103.72099511327,1583.8691,-43.1000,WGS84,0.0000,0.0000,0.0000,"",0.000,0.000,23,19,19,17,00,86,30,33*6f188206
$GPGSA,M,3,32,23,21,10,20,31,,,,,,,1.5,0.8,1.3*32
#BESTPOSA,COM1,0,48.0,FINESTEERING,2140,11927.000,01100000,b1f6,14392;SOL_COMPUTED,FIXEDPOS,36.10362410052,103.72099511327,1583.8691,-43.1000,WGS84,0.0000,0.0000,0.0000,"",0.000,0.000,23,19,19,17,00,86,30,33*964e2890
$GPGSA,M,3,32,23,21,10,20,31,,,,,,,1.5,0.8,1.3*32
#BESTPOSA,COM1,0,50.5,FINESTEERING,2140,11928.000,01100000,b1f6,14392;SOL_COMPUTED,FIXEDPOS,36.10362410052,103.72099511327,1583.8691,-43.1000,WGS84,0.0000,0.0000,0.0000,"",0.000,0.000,23,19,19,17,00,86,30,33*90cfdc5b
$GPGSA,M,3,32,23,21,10,20,31,,,,,,,1.5,0.8,1.3*32
#BESTPOSA,COM1,0,50.5,FINESTEERING,2140,11929.000,01100000,b1f6,14392;SOL_COMPUTED,FIXEDPOS,36.10362410052,103.72099511327,1583.8691,-43.1000,WGS84,0.0000,0.0000,0.0000,"",0.000,0.000,24,19,19,17,00,86,30,33*0c40488d
$GPGSA,M,3,32,23,21,10,20,31,,,,,,,1.5,0.8,1.3*32
